ii)	ºb’’b‚ª’bbº’b’¢b‚ª¢bbbbbbbbbR²*Õ¤ˆé•ªjI“S&&LM—˜00,A,3146.7594,N,09543.0124,W,0.5,312.4,250714,0.0,W*68

$GPGGA,221204.000,3146.75937,N,09543.01237,W,1,08,1.0,144.05,M,-24.0,M,,*5C

$GNGSA,A,3,10,06,17,02,04,12,24,28,,,,,2.1,1.0,1.8*2F

$GNGSA,A,3,,,,,,,,,,,,,2.1,1.0,1.8*27

$GPGSV,3,1,11,02,62,251,25,04,33,043,20,05,13,185,22,06,73,014,20*73

$GPGSV,3,2,11,10,42,139,28,12,33,320,16,17,35,067,25,20,03,037,16*7F

$GPGSV,3,3,11,24,30,265,19,25,00,320,,28,17,138,24,,,,*43

$GLGSV,3,1,10,66,07,162,,65,31,115,,81,25,290,,78,52,258,*62

$GLGSV,3,2,10,87,22,052,,77,26,195,,79,26,322,,88,47,356,*6E

$GLGSV,3,3,10,87,22,052,,72,24,054,,,,,,,,,*6E

$GPRMC,221215.000,A,3146.7595,N,09543.0128,W,0.2,344.6,250714,0.0,W*63

$GPGGA,221215.000,3146.75946,N,09543.01276,W,1,08,1.0,143.78,M,-24.0,M,,*52

$GNGSA,A,3,10,06,17,02,04,12,24,28,,,,,2.1,1.0,1.8*2F

$GNGSA,A,3,,,,,,,,,,,,,2.1,1.0,1.8*27

$GPGSV,3,1,11,02,62,251,26,04,33,043,20,05,13,185,22,06,73,014,22*72

$GPGSV,3,2,11,10,42,139,27,12,33,320,19,17,35,067,27,20,03,037,16*7D

$GPGSV,3,3,11,24,29,265,21,25,00,320,,28,17,138,25,,,,*41

$GLGSV,3,1,10,66,07,162,,65,31,115,,81,25,290,,78,52,258,*62

$GLGSV,3,2,10,87,22,052,,77,25,195,,79,26,322,,88,47,356,*6D

$GLGSV,3,3,10,87,22,052,,72,24,054,,,,,,,,,*6E

$GPRMC,221225.000,A,3146.7595,N,09543.0128,W,0.1,0.0,250714,0.0,W*66

$GPGGA,221225.000,3146.75946,N,09543.01276,W,1,08,1.0,143.78,M,-24.0,M,,*51

$GNGSA,A,3,10,06,17,02,04,12,24,28,,,,,2.1,1.0,1.8*2F

$GNGSA,A,3,,,,,,,,,,,,,2.1,1.0,1.8*27

$GPGSV,3,1,11,02,62,251,26,04,33,043,22,05,13,185,21,06,73,014,22*73

$GPGSV,3,2,11,10,42,139,26,12,33,320,20,17,35,067,26,20,03,037,*70

$GPGSV,3,3,11,24,29,265,21,25,00,321,,28,17,138,22,,,,*47

$GLGSV,3,1,10,66,07,162,,65,31,115,,81,25,290,,78,52,258,*62

$GLGSV,3,2,10,87,22,052,,77,25,195,,79,26,322,,88,47,357,*6C

$GLGSV,3,3,10,87,22,052,,72,24,054,,,,,,,,,*6E

$GPRMC,221235.000,A,3146.7645,N,09543.0150,W,0.5,117.9,250714,0.0,W*6C

$GPGGA,221235.000,3146.76447,N,09543.01498,W,1,08,1.0,135.40,M,-24.0,M,,*53

$GNGSA,A,3,10,06,17,02,04,12,24,28,,,,,2.1,1.0,1.8*2F

$GNGSA,A,3,,,,,,,,,,,,,2.1,1.0,1.8*27

$GPGSV,3,1,11,02,63,252,27,04,33,043,25,05,13,185,22,06,73,014,21*77

$GPGSV,3,2,11,10,42,139,25,12,33,320,22,17,35,067,26,20,03,037,*71

$GPGSV,3,3,11,24,29,265,21,25,00,321,,28,17,138,19,,,,*4F

$GLGSV,3,1,10,66,07,162,20,65,31,115,,81,25,290,,78,52,258,*60

$GLGSV,3,2,10,87,22,052,,77,25,195,,79,26,322,,88,47,357,*6C

$GLGSV,3,3,10,87,22,052,,72,24,054,,,,,,,,,*6E

$GPRMC,221245.000,A,3146.7645,N,09543.0150,W,0.1,0.0,250714,0.0,W*61

$GPGGA,221245.000,3146.76447,N,09543.01498,W,1,08,1.0,135.40,M,-24.0,M,,*54

$GNGSA,A,3,10,06,17,02,04,12,24,28,,,,,2.1,1.0,1.8*2F

$GNGSA,A,3,,,,,,,,,,,,,2.1,1.0,1.8*27

$GPGSV,3,1,11,02,63,252,28,04,33,043,27,05,13,185,22,06,72,014,22*78

$GPGSV,3,2,11,10,42,139,24,12,33,320,24,17,35,067,27,20,03,037,*77

$GPGSV,3,3,11,24,29,265,22,25,00,321,,28,17,138,20,,,,*46

$GLGSV,3,1,10,66,08,161,,65,31,115,,81,25,290,,78,52,258,*6E

$GLGSV,3,2,10,87,22,052,,77,25,195,,79,26,322,,88,47,357,*6C

$GLGSV,3,3,10,87,22,052,,72,24,054,,,,,,,,,*6E

$GPRMC,221256.000,A,3146.7645,N,09543.0150,W,0.1,0.0,250714,0.0,W*63

$GPGGA,221256.000,3146.76447,N,09543.01498,W,1,08,1.0,135.40,M,-24.0,M,,*56

$GNGSA,A,3,10,06,17,02,04,12,24,28,,,,,2.1,1.0,1.8*2F

$GNGSA,A,3,,,,,,,,,,,,,2.1,1.0,1.8*27

$GPGSV,3,1,11,02,63,252,29,04,33,043,27,05,13,185,22,06,72,014,24*7F

$GPGSV,3,2,11,10,42,139,27,12,34,320,27,17,35,067,27,20,03,037,*70

$GPGSV,3,3,11,24,29,265,23,25,00,321,,28,17,138,22,,,,*45

$GLGSV,3,1,10,66,08,161,,65,31,114,,81,25,291,,78,52,258,*6E

$GLGSV,3,2,10,87,22,052,,77,25,195,,79,26,322,,88,47,357,*6C

$GLGSV,3,3,10,87,22,052,,72,24,054,,,,,,,,,*6E

$GPRMC,221306.000,A,3146.7645,N,09543.0150,W,0.3,328.0,250714,0.0,W*6C

$GPGGA,221306.000,3146.76447,N,09543.01498,W,1,08,1.0,135.40,M,-24.0,M,,*52

$GNGSA,A,3,10,06,17,02,04,12,24,28,,,,,2.1,1.0,1.8*2F

$GNGSA,A,3,,,,,,,,,,,,,2.1,1.0,1.8*27

$GPGSV,3,1,11,02,63,252,27,04,33,043,26,05,13,185,22,06,72,014,24*70

$GPGSV,3,2,11,10,42,139,27,12,34,320,28,17,35,068,25,20,03,037,*72

$GPGSV,3,3,11,24,29,265,20,25,00,321,,28,17,138,22,,,,*46

$GLGSV,3,1,10,66,08,161,,65,31,114,,81,25,291,,78,52,258,16*69

$GLGSV,3,2,10,87,22,053,,77,25,195,,79,26,322,,88,47,357,*6D

$GLGSV,3,3,10,87,22,052,,72,24,054,,,,,,,,,*6E

$GPRMC,221316.000,A,3146.7650,N,09543.0161,W,0.0,0.0,250714,0.0,W*61

$GPGGA,221316.000,3146.76505,N,09543.01612,W,1,08,1.0,133.45,M,-24.0,M,,*57

$GNGSA,A,3,10,06,17,02,04,12,24,28,,,,,2.1,1.0,1.8*2F

$GNGSA,A,3,,,,,,,,,,,,,2.1,1.0,1.8*27

$GPGSV,3,1,11,02,63,252,28,04,33,043,25,05,13,185,21,06,72,014,24*7F

$GPGSV,3,2,11,10,42,139,27,12,34,320,28,17,35,068,24,20,03,037,*73

$GPGSV,3,3,11,24,29,265,19,25,00,321,,28,17,138,19,,,,*44

$GLGSV,3,1,10,66,08,161,18,65,31,114,,81,25,291,,78,52,258,*67

$GLGSV,3,2,10,87,22,053,,77,25,195,,79,26,321,,88,47,357,*6E

$GLGSV,3,3,10,87,22,052,,72,24,054,,,,,,,,,*6E

$GPRMC,221326.000,A,3146.7650,N,09543.0161,W,0.1,0.0,250714,0.0,W*63

$GPGGA,221326.000,3146.76505,N,09543.01612,W,1,08,1.0,133.45,M,-24.0,M,,*54

$GNGSA,A,3,10,06,17,02,04,12,24,28,,,,,2.1,1.0,1.8*2F

$GNGSA,A,3,,,,,,,,,,,,,2.1,1.0,1.8*27

$GPGSV,3,1,11,02,63,252,28,04,33,043,22,05,13,185,21,06,72,014,26*7A

$GPGSV,3,2,11,10,42,139,27,12,34,320,28,17,35,068,25,20,03,037,*72

$GPGSV,3,3,11,24,29,264,19,25,00,321,,28,17,138,20,,,,*4F

$GLGSV,3,1,10,66,08,161,,65,31,114,,81,25,291,,78,52,258,*6E

$GLGSV,3,2,10,87,22,053,,77,25,195,,79,26,321,,88,47,358,*61

$GLGSV,3,3,10,87,22,053,,72,23,053,,,,,,,,,*6F

$GPRMC,221336.000,A,3146.7650,N,09543.0161,W,0.3,57.8,250714,0.0,W*5A

$GPGGA,221336.000,3146.76505,N,09543.01612,W,1,08,1.0,133.45,M,-24.0,M,,*55

$GNGSA,A,3,10,06,17,02,04,12,24,28,,,,,2.1,1.0,1.8*2F

$GNGSA,A,3,,,,,,,,,,,,,2.1,1.0,1.8*27

$GPGSV,3,1,11,02,63,252,28,04,33,043,23,05,13,185,21,06,72,014,28*75

$GPGSV,3,2,11,10,42,139,29,12,34,320,29,17,35,068,26,20,03,037,*7E

$GPGSV,3,3,11,24,29,264,20,25,00,321,,28,16,138,22,,,,*46

$GLGSV,3,1,10,66,08,161,,65,31,114,,81,25,291,,78,52,258,*6E

$GLGSV,3,2,10,87,22,053,,77,25,195,,79,26,321,,88,47,358,*61

$GLGSV,3,3,10,87,22,053,,72,23,053,,,,,,,,,*6F

$GPRMC,221347.000,A,3146.7650,N,09543.0161,W,0.1,0.0,250714,0.0,W*64

$GPGGA,221347.000,3146.76505,N,09543.01612,W,1,08,1.0,133.45,M,-24.0,M,,*53

$GNGSA,A,3,10,06,17,02,04,12,24,28,,,,,2.1,1.0,1.8*2F

$GNGSA,A,3,,,,,,,,,,,,,2.1,1.0,1.8*27

$GPGSV,3,1,11,02,63,253,28,04,33,043,26,05,14,185,22,06,72,014,28*75

$GPGSV,3,2,11,10,42,139,30,12,34,320,29,17,35,068,25,20,03,037,*75

$GPGSV,3,3,11,24,29,264,21,25,00,321,,28,16,138,24,,,,*41

$GLGSV,3,1,10,66,08,161,,65,31,114,,81,25,291,,78,52,258,*6E

$GLGSV,3,2,10,87,22,053,,77,25,195,,79,26,321,,88,47,358,*61

$GLGSV,3,3,10,87,22,053,,72,23,053,,,,,,,,,*6F

$GPRMC,221357.000,A,3146.7655,N,09543.0175,W,0.2,0.0,250714,0.0,W*66

$GPGGA,221357.000,3146.76548,N,09543.01749,W,1,08,1.0,131.33,M,-24.0,M,,*57

$GNGSA,A,3,10,06,17,02,04,12,24,28,,,,,2.1,1.0,1.8*2F

$GNGSA,A,3,,,,,,,,,,,,,2.1,1.0,1.8*27

$GPGSV,3,1,11,02,63,253,29,04,33,043,27,05,14,185,22,06,72,015,28*74

$GPGSV,3,2,11,10,43,138,31,12,34,320,27,17,35,068,25,20,03,037,*7A

$GPGSV,3,3,11,24,29,264,21,25,00,321,,28,16,138,24,,,,*41

$GLGSV,3,1,10,66,08,161,,65,31,114,,81,25,291,,78,51,257,*62

$GLGSV,3,2,10,87,22,053,,77,25,195,,79,26,321,,88,47,358,*61

$GLGSV,3,3,10,87,22,053,,72,23,053,,,,,,,,,*6F

$GPRMC,221407.000,A,3146.7655,N,09543.0175,W,0.2,0.0,250714,0.0,W*64

$GPGGA,221407.000,3146.76548,N,09543.01749,W,1,08,1.0,131.33,M,-24.0,M,,*55

$GNGSA,A,3,10,06,17,02,04,12,24,28,,,,,2.1,1.0,1.8*2F

$GNGSA,A,3,,,,,,,,,,,,,2.1,1.0,1.8*27

$GPGSV,3,1,11,02,63,253,29,04,33,043,28,05,14,185,21,06,72,015,28*78

$GPGSV,3,2,11,10,43,138,30,12,34,320,25,17,35,068,24,20,03,037,*78

$GPGSV,3,3,11,24,29,264,21,25,00,321,,28,16,138,24,,,,*41

$GLGSV,3,1,10,66,08,161,15,65,31,114,,81,25,291,,78,51,257,*66

$GLGSV,3,2,10,87,22,053,,77,24,195,,79,26,321,,88,47,358,*60

$GLGSV,3,3,10,87,22,053,,72,23,053,,,,,,,,,*6F

$GPRMC,221417.000,A,3146.7655,N,09543.0175,W,0.0,0.0,250714,0.0,W*67

$GPGGA,221417.000,3146.76548,N,09543.01749,W,1,08,1.0,131.33,M,-24.0,M,,*54

$GNGSA,A,3,10,06,17,02,04,12,24,28,,,,,2.1,1.0,1.8*2F

$GNGSA,A,3,,,,,,,,,,,,,2.1,1.0,1.8*27

$GPGSV,3,1,11,02,63,253,29,04,33,043,29,05,14,185,21,06,72,015,26*77

$GPGSV,3,2,11,10,43,138,29,12,34,320,21,17,35,068,24,20,02,037,*75

$GPGSV,3,3,11,24,29,264,21,25,00,321,,28,16,138,24,,,,*41

$GLGSV,3,1,10,66,08,161,,65,31,114,,81,25,291,,78,51,257,*62

$GLGSV,3,2,10,87,22,053,,77,24,195,,79,27,321,,88,47,359,*60

$GLGSV,3,3,10,87,21,053,,72,23,053,,,,,,,,,*6C

$GPRMC,221427.000,A,3146.7655,N,09543.0175,W,0.1,0.0,250714,0.0,W*65

$GPGGA,221427.000,3146.76548,N,09543.01749,W,1,08,1.0,131.33,M,-24.0,M,,*57

$GNGSA,A,3,10,06,17,02,04,12,24,28,,,,,2.1,1.0,1.8*2F

$GNGSA,A,3,,,,,,,,,,,,,2.1,1.0,1.8*27

$GPGSV,3,1,11,02,63,253,27,04,33,043,27,05,14,185,20,06,72,015,25*75

$GPGSV,3,2,11,10,43,138,25,12,34,320,16,17,35,068,24,20,02,037,*7D

$GPGSV,3,3,11,24,29,264,21,25,00,321,,28,16,138,25,,,,*40

$GLGSV,3,1,10,66,08,161,,65,31,114,,81,25,291,,78,51,257,*62

$GLGSV,3,2,10,87,22,053,,77,24,195,,79,27,321,,88,47,359,*60

$GLGSV,3,3,10,87,21,053,,72,23,053,,,,,,,,,*6C

$GPRMC,221437.000,A,3146.7654,N,09543.0177,W,0.2,0.0,250714,0.0,W*64

$GPGGA,221437.000,3146.76539,N,09543.01768,W,1,08,1.0,130.99,M,-24.0,M,,*52

$GNGSA,A,3,10,06,17,02,04,12,24,28,,,,,2.1,1.0,1.8*2F

$GNGSA,A,3,,,,,,,,,,,,,2.1,1.0,1.8*27

$GPGSV,3,1,11,02,63,253,28,04,33,043,27,05,14,185,19,06,72,015,27*72

$GPGSV,3,2,11,10,43,138,24,12,34,320,15,17,35,068,24,20,02,037,*7F

$GPGSV,3,3,11,24,29,264,21,25,00,321,,28,16,138,25,,,,*40

$GLGSV,3,1,10,66,08,161,,65,31,114,,81,25,291,,78,51,257,*62

$GLGSV,3,2,10,87,22,053,,77,24,195,,79,27,321,,88,47,359,*60

$GLGSV,3,3,10,87,21,053,,72,23,053,,,,,,,,,*6C

$GPRMC,221448.000,A,3146.7654,N,09543.0177,W,0.1,0.0,250714,0.0,W*6F

$GPGGA,221448.000,3146.76539,N,09543.01768,W,1,08,1.0,130.99,M,-24.0,M,,*5A

$GNGSA,A,3,10,06,17,02,04,12,24,28,,,,,2.1,1.0,1.8*2F

$GNGSA,A,3,,,,,,,,,,,,,2.1,1.0,1.8*27

$GPGSV,3,1,11,02,63,254,28,04,33,043,27,05,14,185,19,06,72,015,27*75

$GPGSV,3,2,11,10,43,138,22,12,34,320,15,17,35,068,23,20,02,037,*7E

$GPGSV,3,3,11,24,29,264,21,25,00,321,,28,16,138,22,,,,*47

$GLGSV,3,1,10,66,08,161,,65,32,113,,81,26,292,,78,51,257,*66

$GLGSV,3,2,10,87,22,053,,77,24,195,,79,27,321,,88,47,359,*60

$GLGSV,3,3,10,87,21,053,,72,23,053,,,,,,,,,*6C

$GPRMC,221458.000,A,3146.7654,N,09543.0177,W,0.8,214.0,250714,0.0,W*60

$GPGGA,221458.000,3146.76539,N,09543.01768,W,1,08,1.0,130.99,M,-24.0,M,,*5B

$GNGSA,A,3,10,06,17,02,04,12,24,28,,,,,2.1,1.0,1.8*2F

$GNGSA,A,3,,,,,,,,,,,,,2.1,1.0,1.8*27

$GPGSV,3,1,11,02,63,254,27,04,32,043,27,05,14,185,19,06,71,016,28*74

$GPGSV,3,2,11,10,43,138,23,12,34,320,17,17,35,068,23,20,02,037,*7D

$GPGSV,3,3,11,24,29,264,22,25,00,321,,28,16,138,19,,,,*4C

$GLGSV,3,1,10,66,08,161,,65,32,113,,81,26,292,,78,51,256,*67

$GLGSV,3,2,10,87,21,053,,77,24,195,,79,27,321,,88,47,359,*63

$GLGSV,3,3,10,87,21,053,,72,23,053,,,,,,,,,*6C

$GPRMC,221508.000,A,3146.7651,N,09543.0187,W,0.0,0.0,250714,0.0,W*61

$GPGGA,221508.000,3146.76508,N,09543.01872,W,1,07,1.2,129.59,M,-24.0,M,,*50

$GNGSA,A,3,10,06,17,02,04,12,24,,,,,,2.6,1.2,2.3*28

$GNGSA,A,3,,,,,,,,,,,,,2.6,1.2,2.3*2A

$GPGSV,3,1,11,02,63,254,27,04,32,043,28,05,14,185,19,06,71,016,29*7A

$GPGSV,3,2,11,10,43,138,26,12,35,320,21,17,35,068,24,20,02,037,*7B

$GPGSV,3,3,11,24,29,264,24,25,00,321,,28,16,138,12,,,,*41

$GLGSV,3,1,10,66,08,161,,65,32,113,,81,26,292,,78,51,256,*67

$GLGSV,3,2,10,87,21,053,,77,24,195,,79,27,320,,88,47,359,*62

$GLGSV,3,3,10,87,21,053,,72,23,053,,,,,,,,,*6C

$GPRMC,221518.000,A,3146.7651,N,09543.0187,W,0.3,202.8,250714,0.0,W*6B

$GPGGA,221518.000,3146.76508,N,09543.01872,W,1,07,1.2,129.59,M,-24.0,M,,*51

$GNGSA,A,3,10,06,17,02,04,12,24,,,,,,2.6,1.2,2.3*28

$GNGSA,A,3,,,,,,,,,,,,,2.6,1.2,2.3*2A

$GPGSV,3,1,11,02,63,254,26,04,32,043,27,05,14,185,19,06,71,016,28*75

$GPGSV,3,2,11,10,43,138,27,12,35,320,23,17,35,069,24,20,02,037,*79

$GPGSV,3,3,11,24,29,264,24,25,00,321,,28,16,138,,,,,*42

$GLGSV,3,1,10,66,08,161,,65,32,113,,81,26,292,,78,51,256,*67

$GLGSV,3,2,10,87,21,053,17,77,24,195,,79,27,320,,88,47,359,*64

$GLGSV,3,3,10,87,21,054,,72,23,053,,,,,,,,,*6B

$GPRMC,221528.000,A,3146.7651,N,09543.0187,W,0.2,0.0,250714,0.0,W*61

$GPGGA,221528.000,3146.76508,N,09543.01872,W,1,08,1.0,129.59,M,-24.0,M,,*5F

$GNGSA,A,3,10,06,17,02,04,12,24,28,,,,,2.1,1.0,1.8*2F

$GNGSA,A,3,,,,,,,,,,,,,2.1,1.0,1.8*27

$GPGSV,3,1,11,02,63,254,25,04,32,043,27,05,14,185,20,06,71,016,29*7D

$GPGSV,3,2,11,10,43,138,29,12,35,320,23,17,35,069,24,20,02,036,*76

$GPGSV,3,3,11,24,29,264,24,25,00,321,,28,16,138,17,,,,*44

$GLGSV,3,1,10,66,09,161,,65,32,113,,81,26,292,,78,51,256,*66

$GLGSV,3,2,10,87,21,053,13,77,24,195,,79,27,320,,88,47,359,*60

$GLGSV,3,3,10,87,21,054,,72,23,052,,,,,,,,,*6A

$GPRMC,221538.000,A,3146.7651,N,09543.0187,W,0.3,117.3,250714,0.0,W*65

$GPGGA,221538.000,3146.76508,N,09543.01872,W,1,08,1.0,129.59,M,-24.0,M,,*5E

$GNGSA,A,3,10,06,17,02,04,12,24,28,,,,,2.1,1.0,1.8*2F

$GNGSA,A,3,,,,,,,,,,,,,2.1,1.0,1.8*27

$GPGSV,3,1,11,02,63,254,24,04,32,043,26,05,14,185,20,06,71,016,27*73

$GPGSV,3,2,11,10,43,138,29,12,35,320,23,17,35,069,24,20,02,036,*76

$GPGSV,3,3,11,24,29,263,22,25,01,321,,28,15,139,17,,,,*46

$GLGSV,3,1,10,66,09,161,,65,32,113,,81,26,292,,78,51,256,*66

$GLGSV,3,2,10,87,21,053,,77,24,195,,79,27,320,,88,47,359,*62

$GLGSV,3,3,10,87,21,054,,72,23,052,,,,,,,,,*6A

$GPRMC,221549.000,A,3146.7649,N,09543.0191,W,0.0,0.0,250714,0.0,W*6A

$GPGGA,221549.000,3146.76493,N,09543.01909,W,1,08,1.0,129.38,M,-24.0,M,,*51

$GNGSA,A,3,10,06,17,02,04,12,24,28,,,,,2.1,1.0,1.8*2F

$GNGSA,A,3,,,,,,,,,,,,,2.1,1.0,1.8*27

$GPGSV,3,1,11,02,63,254,26,04,32,043,28,05,14,185,20,06,71,016,29*71

$GPGSV,3,2,11,10,43,138,31,12,35,320,18,17,35,069,26,20,02,036,*75

$GPGSV,3,3,11,24,29,263,22,25,01,321,,28,15,139,20,,,,*42

$GLGSV,3,1,10,66,09,161,,65,32,113,,81,26,292,,78,51,255,*65

$GLGSV,3,2,10,87,21,053,,77,24,195,,79,27,320,,88,47,359,*62

$GLGSV,3,3,10,87,21,054,,72,23,052,,,,,,,,,*6A

$GPRMC,221559.000,A,3146.7649,N,09543.0191,W,0.1,0.0,250714,0.0,W*6A

$GPGGA,221559.000,3146.76493,N,09543.01909,W,1,07,1.2,129.38,M,-24.0,M,,*5D

$GNGSA,A,3,10,06,17,02,04,24,28,,,,,,2.2,1.2,1.9*2C

$GNGSA,A,3,,,,,,,,,,,,,2.2,1.2,1.9*27

$GPGSV,3,1,11,02,64,255,26,04,32,044,29,05,15,185,16,06,71,016,28*74

$GPGSV,3,2,11,10,43,138,29,12,35,320,14,17,35,069,26,20,02,036,*70

$GPGSV,3,3,11,24,29,263,21,25,01,321,,28,15,139,21,,,,*40

$GLGSV,3,1,10,66,09,161,,65,32,113,,81,26,292,,78,51,255,*65

$GLGSV,3,2,10,87,21,054,,77,23,195,,79,27,320,,88,47,359,*62

$GLGSV,3,3,10,87,21,054,,72,23,052,,,,,,,,,*6A

$GPRMC,221609.000,A,3146.7649,N,09543.0191,W,0.2,0.0,250714,0.0,W*6F

$GPGGA,221609.000,3146.76493,N,09543.01909,W,1,07,1.2,129.38,M,-24.0,M,,*5B

$GNGSA,A,3,10,06,17,02,04,24,28,,,,,,2.2,1.2,1.9*2C

$GNGSA,A,3,,,,,,,,,,,,,2.2,1.2,1.9*27

$GPGSV,3,1,11,02,64,255,27,04,32,044,30,05,15,185,17,06,71,016,27*73

$GPGSV,3,2,11,10,44,137,29,12,35,320,,17,35,069,27,20,02,036,*7C

$GPGSV,3,3,11,24,29,263,19,25,01,321,,28,15,139,22,,,,*48

$GLGSV,3,1,10,66,09,161,,65,32,113,,81,26,292,,78,51,255,*65

$GLGSV,3,2,10,87,21,054,,77,23,195,,79,27,320,,88,47,000,*6D

$GLGSV,3,3,10,87,21,054,,72,23,052,,,,,,,,,*6A

$GPRMC,221619.000,A,3146.7649,N,09543.0191,W,0.2,0.0,250714,0.0,W*6E

$GPGGA,221619.000,3146.76493,N,09543.01909,W,1,08,1.0,129.38,M,-24.0,M,,*57

$GNGSA,A,3,10,06,17,02,04,12,24,28,,,,,2.1,1.0,1.8*2F

$GNGSA,A,3,,,,,,,,,,,,,2.1,1.0,1.8*27

$GPGSV,3,1,11,02,64,255,25,04,32,044,27,05,15,185,16,06,71,016,23*72

$GPGSV,3,2,11,10,44,137,27,12,35,320,22,17,35,069,25,20,02,036,*70

$GPGSV,3,3,11,24,29,263,18,25,01,321,,28,15,139,20,,,,*4B

$GLGSV,3,1,10,66,09,161,,65,32,113,,81,26,292,,78,51,255,*65

$GLGSV,3,2,10,87,21,054,,77,23,195,,79,27,320,,88,47,000,*6D

$GLGSV,3,3,10,87,21,054,,72,23,052,,,,,,,,,*6A

$GPRMC,221629.000,A,3146.7651,N,09543.0196,W,0.2,0.0,250714,0.0,W*63

$GPGGA,221629.000,3146.76512,N,09543.01961,W,1,08,1.0,128.73,M,-24.0,M,,*5C

$GNGSA,A,3,10,06,17,02,04,12,24,28,,,,,2.1,1.0,1.8*2F

$GNGSA,A,3,,,,,,,,,,,,,2.1,1.0,1.8*27

$GPGSV,3,1,11,02,64,255,25,04,32,044,27,05,15,185,17,06,71,016,23*73

$GPGSV,3,2,11,10,44,137,25,12,35,320,23,17,34,069,26,20,02,036,*71

$GPGSV,3,3,11,24,29,263,20,25,01,321,,28,15,139,23,,,,*43

$GLGSV,3,1,10,66,09,160,,65,32,113,,81,26,292,,78,51,255,*64

$GLGSV,3,2,10,87,21,054,13,77,23,195,,79,27,320,,88,47,000,*6F

$GLGSV,3,3,10,87,21,054,,72,23,052,,,,,,,,,*6A

$GPRMC,221640.000,A,3146.7651,N,09543.0196,W,0.1,0.0,250714,0.0,W*6F

$GPGGA,221640.000,3146.76512,N,09543.01961,W,1,08,1.0,128.73,M,-24.0,M,,*53

$GNGSA,A,3,10,06,17,02,04,12,24,28,,,,,2.1,1.0,1.8*2F

$GNGSA,A,3,,,,,,,,,,,,,2.1,1.0,1.8*27

$GPGSV,3,1,11,02,64,255,26,04,32,044,28,05,15,185,17,06,71,016,24*78

$GPGSV,3,2,11,10,44,137,24,12,35,320,24,17,34,069,26,20,02,036,*77

$GPGSV,3,3,11,24,29,263,23,25,01,321,,28,15,139,24,,,,*47

$GLGSV,3,1,10,66,09,160,,65,32,112,,81,26,293,,78,51,255,15*60

$GLGSV,3,2,10,87,21,054,03,77,23,195,,79,27,320,,88,47,000,*6E

$GLGSV,3,3,10,87,21,054,,72,23,052,,,,,,,,,*6A

$GPRMC,221650.000,A,3146.7651,N,09543.0196,W,0.5,118.7,250714,0.0,W*65

$GPGGA,221650.000,3146.76512,N,09543.01961,W,1,08,1.0,128.73,M,-24.0,M,,*52

$GNGSA,A,3,10,06,17,02,04,12,24,28,,,,,2.1,1.0,1.8*2F

$GNGSA,A,3,,,,,,,,,,,,,2.1,1.0,1.8*27

$GPGSV,3,1,11,02,64,255,25,04,32,044,25,05,15,185,17,06,71,016,24*76

$GPGSV,3,2,11,10,44,137,24,12,35,320,24,17,34,069,25,20,02,036,*74

$GPGSV,3,3,11,24,29,263,23,25,01,321,,28,15,139,24,,,,*47

$GLGSV,3,1,10,66,09,160,,65,32,112,,81,26,293,,78,51,254,*65

$GLGSV,3,2,10,87,21,054,,77,23,195,,79,27,320,,88,47,000,*6D

$GLGSV,3,3,10,87,21,054,,72,23,052,,,,,,,,,*6A

$GPRMC,221700.000,A,3146.7651,N,09543.0196,W,0.2,0.0,250714,0.0,W*69

$GPGGA,221700.000,3146.76512,N,09543.01961,W,1,08,1.0,128.73,M,-24.0,M,,*56

$GNGSA,A,3,10,06,17,02,04,12,24,28,,,,,2.1,1.0,1.8*2F

$GNGSA,A,3,,,,,,,,,,,,,2.1,1.0,1.8*27

$GPGSV,3,1,11,02,64,256,26,04,31,044,25,05,15,185,05,06,71,016,24*76

$GPGSV,3,2,11,10,44,137,24,12,35,320,25,17,34,069,25,20,02,036,*75

$GPGSV,3,3,11,24,29,263,23,25,01,321,,28,15,139,23,,,,*40

$GLGSV,3,1,10,66,09,160,,65,32,112,,81,26,293,,78,51,254,*65

$GLGSV,3,2,10,87,21,054,,77,23,194,,79,28,319,,88,47,000,*69

$GLGSV,3,3,10,87,21,054,,72,23,052,,,,,,,,,*6A

$GPRMC,221710.000,A,3146.7653,N,09543.0204,W,0.4,339.7,250714,0.0,W*6A

$GPGGA,221710.000,3146.76534,N,09543.02042,W,1,08,1.0,128.05,M,-24.0,M,,*59

$GNGSA,A,3,10,06,17,02,04,12,24,28,,,,,2.1,1.0,1.8*2F

$GNGSA,A,3,,,,,,,,,,,,,2.1,1.0,1.8*27

$GPGSV,3,1,11,02,64,256,27,04,31,044,27,05,15,185,,06,70,017,25*71

$GPGSV,3,2,11,10,44,137,25,12,35,320,24,17,34,069,27,20,02,036,*77

$GPGSV,3,3,11,24,29,263,24,25,01,321,,28,15,139,20,,,,*44

$GLGSV,3,1,10,66,09,160,,65,32,112,,81,26,293,,78,51,254,*65

$GLGSV,3,2,10,87,21,054,,77,23,194,,79,28,319,,88,47,000,*69

$GLGSV,3,3,10,87,21,055,,72,23,052,,,,,,,,,*6B

$GPRMC,221720.000,A,3146.7653,N,09543.0204,W,0.1,0.0,250714,0.0,W*62

$GPGGA,221720.000,3146.76534,N,09543.02042,W,1,08,1.0,128.05,M,-24.0,M,,*5A

$GNGSA,A,3,10,06,17,02,04,12,24,28,,,,,2.0,1.0,1.8*2E

$GNGSA,A,3,,,,,,,,,,,,,2.0,1.0,1.8*26

$GPGSV,3,1,11,02,64,256,24,04,31,044,26,05,15,185,,06,70,017,24*72

$GPGSV,3,2,11,10,44,137,23,12,36,320,21,17,34,069,27,20,02,036,*77

$GPGSV,3,3,11,24,29,263,22,25,01,321,,28,15,139,20,,,,*42

$GLGSV,3,1,10,66,10,160,,65,32,112,,81,26,293,,78,51,254,*6D

$GLGSV,3,2,10,87,21,054,,77,23,194,,79,28,319,,88,47,000,*69

$GLGSV,3,3,10,87,21,055,,72,23,051,,,,,,,,,*68

$GPRMC,221730.000,A,3146.7653,N,09543.0204,W,0.3,88.6,250714,0.0,W*57

$GPGGA,221730.000,3146.76534,N,09543.02042,W,1,08,1.0,128.05,M,-24.0,M,,*5B

$GNGSA,A,3,10,06,17,02,04,12,24,28,,,,,2.0,1.0,1.8*2E

$GNGSA,A,3,,,,,,,,,,,,,2.0,1.0,1.8*26

$GPGSV,3,1,11,02,64,256,24,04,31,044,27,05,15,185,,06,70,017,25*72

$GPGSV,3,2,11,10,44,137,25,12,36,320,20,17,34,070,27,20,02,036,*78

$GPGSV,3,3,11,24,29,263,24,25,01,321,,28,15,139,23,,,,*47

$GLGSV,3,1,10,66,10,160,,65,33,112,,81,26,293,,78,51,254,*6C

$GLGSV,3,2,10,87,21,054,,77,23,194,,79,28,319,,88,47,000,*69

$GLGSV,3,3,10,87,21,055,,72,23,051,,,,,,,,,*68

$GPRMC,221740.000,A,3146.7653,N,09543.0204,W,0.1,0.0,250714,0.0,W*64

$GPGGA,221740.000,3146.76534,N,09543.02042,W,1,08,1.0,128.05,M,-24.0,M,,*5C

$GNGSA,A,3,10,06,17,02,04,12,24,28,,,,,2.0,1.0,1.8*2E

$GNGSA,A,3,,,,,,,,,,,,,2.0,1.0,1.8*26

$GPGSV,3,1,11,02,64,256,23,04,31,044,27,05,15,185,,06,70,017,24*74

$GPGSV,3,2,11,10,44,137,25,12,36,320,19,17,34,070,26,20,01,036,*70

$GPGSV,3,3,11,24,28,262,23,25,01,321,,28,15,139,24,,,,*47

$GLGSV,3,1,10,66,10,160,,65,33,112,,81,26,293,,78,51,254,*6C

$GLGSV,3,2,10,87,21,054,,77,23,194,,79,28,319,,88,47,000,*69

$GLGSV,3,3,10,87,21,055,,72,23,051,,,,,,,,,*68

$GPRMC,221751.000,A,3146.7653,N,09543.0212,W,0.1,0.0,250714,0.0,W*63

$GPGGA,221751.000,3146.76527,N,09543.02120,W,1,07,1.2,128.12,M,-24.0,M,,*50

$GNGSA,A,3,10,06,17,02,04,24,28,,,,,,2.2,1.2,1.9*2C

$GNGSA,A,3,,,,,,,,,,,,,2.2,1.2,1.9*27

$GPGSV,3,1,11,02,64,256,22,04,31,044,26,05,15,185,,06,70,017,25*75

$GPGSV,3,2,11,10,44,137,26,12,36,320,10,17,34,070,27,20,01,036,*7B

$GPGSV,3,3,11,24,28,262,22,25,02,321,,28,14,139,24,,,,*44

$GLGSV,3,1,10,66,10,160,,65,33,112,,81,26,293,,78,50,254,15*69

$GLGSV,3,2,10,87,21,055,,77,23,194,,79,28,319,,88,47,000,*68

$GLGSV,3,3,10,87,21,055,,72,23,051,,,,,,,,,*68

$GPRMC,221801.000,A,3146.7653,N,09543.0212,W,0.4,152.4,250714,0.0,W*6E

$GPGGA,221801.000,3146.76527,N,09543.02120,W,1,07,1.2,128.12,M,-24.0,M,,*5A

$GNGSA,A,3,10,06,17,02,04,24,28,,,,,,2.2,1.2,1.9*2C

$GNGSA,A,3,,,,,,,,,,,,,2.2,1.2,1.9*27

$GPGSV,3,1,11,02,64,257,23,04,31,044,26,05,15,185,,06,70,017,27*77

$GPGSV,3,2,11,10,44,137,28,12,36,320,,17,34,070,29,20,01,036,*7A

$GPGSV,3,3,11,24,28,262,22,25,02,321,,28,14,139,22,,,,*42

$GLGSV,3,1,10,66,10,160,,65,33,112,,81,26,293,,78,50,254,*6D

$GLGSV,3,2,10,87,21,055,,77,22,194,,79,28,319,,88,47,001,*68

$GLGSV,3,3,10,87,21,055,,72,23,051,,,,,,,,,*68

$GPRMC,221811.000,A,3146.7653,N,09543.0212,W,0.2,257.5,250714,0.0,W*6E

$GPGGA,221811.000,3146.76527,N,09543.02120,W,1,07,1.2,128.12,M,-24.0,M,,*5B

$GNGSA,A,3,10,06,17,02,04,24,28,,,,,,2.2,1.2,1.9*2C

$GNGSA,A,3,,,,,,,,,,,,,2.2,1.2,1.9*27

$GPGSV,3,1,11,02,64,257,23,04,31,044,24,05,16,184,,06,70,017,28*78

$GPGSV,3,2,11,10,44,137,28,12,36,320,,17,34,070,28,20,01,036,*7B

$GPGSV,3,3,11,24,28,262,22,25,02,321,,28,14,139,22,,,,*42

$GLGSV,3,1,10,66,10,160,,65,33,112,,81,26,293,,78,50,254,*6D

$GLGSV,3,2,10,87,21,055,,77,22,194,,79,28,319,,88,47,001,*68

$GLGSV,3,3,10,87,20,055,,72,23,051,,,,,,,,,*69

$GPRMC,221821.000,A,3146.7652,N,09543.0212,W,0.3,97.0,250714,0.0,W*56

$GPGGA,221821.000,3146.76515,N,09543.02118,W,1,07,1.2,128.32,M,-24.0,M,,*50

$GNGSA,A,3,10,06,17,02,04,24,28,,,,,,2.2,1.2,1.9*2C

$GNGSA,A,3,,,,,,,,,,,,,2.2,1.2,1.9*27

$GPGSV,3,1,11,02,64,257,23,04,31,044,22,05,16,184,,06,70,017,28*7E

$GPGSV,3,2,11,10,44,136,28,12,36,320,,17,34,070,27,20,01,036,*75

$GPGSV,3,3,11,24,28,262,21,25,02,321,,28,14,139,22,,,,*41

$GLGSV,3,1,10,66,10,160,,65,33,112,,81,26,293,,78,50,254,*6D

$GLGSV,3,2,10,87,21,055,,77,22,194,,79,28,319,,88,47,001,*68

$GLGSV,3,3,10,87,20,055,,72,23,051,,,,,,,,,*69

$GPRMC,221831.000,A,3146.7652,N,09543.0212,W,0.2,0.0,250714,0.0,W*68

$GPGGA,221831.000,3146.76515,N,09543.02118,W,1,07,1.2,128.32,M,-24.0,M,,*51

$GNGSA,A,3,10,06,17,02,04,24,28,,,,,,2.2,1.2,1.9*2C

$GNGSA,A,3,,,,,,,,,,,,,2.2,1.2,1.9*27

$GPGSV,3,1,11,02,64,257,23,04,31,044,22,05,16,184,,06,70,017,28*7E

$GPGSV,3,2,11,10,44,136,28,12,36,320,,17,34,070,28,20,01,036,*7A

$GPGSV,3,3,11,24,28,262,21,25,02,321,,28,14,139,23,,,,*40

$GLGSV,3,1,10,66,10,160,,65,33,111,,81,26,293,,78,50,254,*6E

$GLGSV,3,2,10,87,21,055,,77,22,194,,79,28,319,,88,47,001,*68

$GLGSV,3,3,10,87,20,055,,72,23,051,,,,,,,,,*69

$GPRMC,221841.000,A,3146.7652,N,09543.0212,W,0.1,0.0,250714,0.0,W*6C

$GPGGA,221841.000,3146.76515,N,09543.02118,W,1,08,1.0,128.32,M,-24.0,M,,*5B

$GNGSA,A,3,10,06,17,02,04,12,24,28,,,,,2.0,1.0,1.8*2E

$GNGSA,A,3,,,,,,,,,,,,,2.0,1.0,1.8*26

$GPGSV,3,1,11,02,64,257,25,04,31,044,25,05,16,184,,06,70,017,29*7E

$GPGSV,3,2,11,10,44,136,29,12,36,320,18,17,34,070,29,20,01,036,*73

$GPGSV,3,3,11,24,28,262,22,25,02,321,,28,14,139,23,,,,*43

$GLGSV,3,1,10,66,10,160,,65,33,111,,81,26,294,,78,50,253,*6E

$GLGSV,3,2,10,87,20,055,,77,22,194,,79,28,319,,88,47,001,*69

$GLGSV,3,3,10,87,20,055,,72,23,051,,,,,,,,,*69

$GPRMC,221851.000,A,3146.7652,N,09543.0212,W,0.1,0.0,250714,0.0,W*6D

$GPGGA,221851.000,3146.76515,N,09543.02118,W,1,08,1.0,128.32,M,-24.0,M,,*5A

$GNGSA,A,3,10,06,17,02,04,12,24,28,,,,,2.0,1.0,1.8*2E

$GNGSA,A,3,,,,,,,,,,,,,2.0,1.0,1.8*26

$GPGSV,3,1,11,02,64,257,27,04,31,044,27,05,16,184,,06,70,017,29*7E

$GPGSV,3,2,11,10,44,136,28,12,36,320,18,17,34,070,30,20,01,036,*7A

$GPGSV,3,3,11,24,28,262,22,25,02,321,,28,14,139,22,,,,*42

$GLGSV,3,1,10,66,10,160,,65,33,111,,81,26,294,,78,50,253,*6E

$GLGSV,3,2,10,87,20,055,,77,22,194,,79,28,319,,88,47,001,*69

$GLGSV,3,3,10,87,20,055,,72,23,051,,,,,,,,,*69

$GPRMC,221901.000,A,3146.7650,N,09543.0216,W,0.5,84.6,250714,0.0,W*51

$GPGGA,221901.000,3146.76503,N,09543.02155,W,1,08,1.0,127.89,M,-24.0,M,,*5F

$GNGSA,A,3,10,06,17,02,04,12,24,28,,,,,2.0,1.0,1.8*2E

$GNGSA,A,3,,,,,,,,,,,,,2.0,1.0,1.8*26

$GPGSV,3,1,11,02,64,257,27,04,31,044,28,05,16,184,20,06,70,017,28*72

$GPGSV,3,2,11,10,44,136,25,12,36,320,16,17,34,070,30,20,01,036,*79

$GPGSV,3,3,11,24,28,262,21,25,02,321,,28,14,139,22,,,,*41

$GLGSV,3,1,10,66,10,160,,65,33,111,,81,26,294,,78,50,253,*6E

$GLGSV,3,2,10,87,20,055,,77,22,194,,79,28,319,,88,47,001,*69

$GLGSV,3,3,10,87,20,055,,72,23,051,,,,,,,,,*69

$GPRMC,221911.000,A,3146.7650,N,09543.0216,W,0.3,139.0,250714,0.0,W*67

$GPGGA,221911.000,3146.76503,N,09543.02155,W,1,08,1.0,127.89,M,-24.0,M,,*5E

$GNGSA,A,3,10,06,17,02,04,12,24,28,,,,,2.0,1.0,1.8*2E

$GNGSA,A,3,,,,,,,,,,,,,2.0,1.0,1.8*26

$GPGSV,3,1,11,02,65,258,28,04,30,044,29,05,16,184,21,06,70,017,28*72

$GPGSV,3,2,11,10,44,136,25,12,36,320,16,17,34,070,31,20,01,036,*78

$GPGSV,3,3,11,24,28,262,22,25,02,321,,28,14,139,26,,,,*46

$GLGSV,3,1,10,66,10,160,,65,33,111,,81,26,294,,78,50,253,*6E

$GLGSV,3,2,10,87,20,055,,77,22,194,,79,28,319,,88,47,001,*69

$GLGSV,3,3,10,87,20,055,,72,23,050,,,,,,,,,*68

$GPRMC,221922.000,A,3146.7650,N,09543.0216,W,0.2,0.0,250714,0.0,W*6D

$GPGGA,221922.000,3146.76503,N,09543.02155,W,1,08,1.0,127.89,M,-24.0,M,,*5E

$GNGSA,A,3,10,06,17,02,04,12,24,28,,,,,2.0,1.0,1.8*2E

$GNGSA,A,3,,,,,,,,,,,,,2.0,1.0,1.8*26

$GPGSV,3,1,11,02,65,258,27,04,30,044,29,05,16,184,21,06,69,018,28*7A

$GPGSV,3,2,11,10,45,136,26,12,36,320,17,17,34,070,31,20,01,036,*7B

$GPGSV,3,3,11,24,28,262,21,25,02,321,,28,14,139,27,,,,*44

$GLGSV,3,1,10,66,10,160,,65,33,111,,81,26,294,,78,50,253,*6E

$GLGSV,3,2,10,87,20,055,,77,22,194,,79,28,319,,88,47,001,*69

$GLGSV,3,3,10,87,20,055,,72,23,050,,,,,,,,,*68

$GPRMC,221932.000,A,3146.7650,N,09543.0216,W,0.2,291.3,250714,0.0,W*65

$GPGGA,221932.000,3146.76503,N,09543.02155,W,1,08,1.0,127.89,M,-24.0,M,,*5F

$GNGSA,A,3,10,06,17,02,04,12,24,28,,,,,2.0,1.0,1.8*2E

$GNGSA,A,3,,,,,,,,,,,,,2.0,1.0,1.8*26

$GPGSV,3,1,11,02,65,258,26,04,30,044,27,05,16,184,21,06,69,018,28*75

$GPGSV,3,2,11,10,45,136,24,12,36,320,17,17,34,070,30,20,01,036,*78

$GPGSV,3,3,11,24,28,262,21,25,02,321,,28,14,139,25,,,,*46

$GLGSV,3,1,10,66,10,160,,65,33,111,,81,27,294,,78,50,253,*6F

$GLGSV,3,2,10,87,20,055,,77,22,194,,79,28,319,,88,47,001,*69

$GLGSV,3,3,10,87,20,055,,72,23,050,,,,,,,,,*68

$GPRMC,221942.000,A,3146.7650,N,09543.0218,W,0.4,101.3,250714,0.0,W*60

$GPGGA,221942.000,3146.76497,N,09543.02181,W,1,08,1.0,128.12,M,-24.0,M,,*50

$GNGSA,A,3,10,06,17,02,04,12,24,28,,,,,2.0,1.0,1.8*2E

$GNGSA,A,3,,,,,,,,,,,,,2.0,1.0,1.8*26

$GPGSV,3,1,11,02,65,258,25,04,30,044,25,05,16,184,21,06,69,018,29*75

$GPGSV,3,2,11,10,45,136,24,12,36,320,20,17,34,071,30,20,01,036,*7D

$GPGSV,3,3,11,24,28,262,23,25,02,321,,28,14,139,24,,,,*45

$GLGSV,3,1,10,66,10,160,,65,33,111,,81,27,294,,78,50,252,*6E

$GLGSV,3,2,10,87,20,056,,77,22,194,,79,28,319,,88,47,001,*6A

$GLGSV,3,3,10,87,20,055,,72,23,050,,,,,,,,,*68

$GPRMC,221952.000,A,3146.7650,N,09543.0218,W,0.3,79.5,250714,0.0,W*5E

$GPGGA,221952.000,3146.76497,N,09543.02181,W,1,08,1.0,128.12,M,-24.0,M,,*51

$GNGSA,A,3,10,06,17,02,04,12,24,28,,,,,2.0,1.0,1.8*2E

$GNGSA,A,3,,,,,,,,,,,,,2.0,1.0,1.8*26

$GPGSV,3,1,11,02,65,258,23,04,30,044,22,05,16,184,21,06,69,018,25*78

$GPGSV,3,2,11,10,45,136,27,12,36,320,22,17,34,071,27,20,01,036,*7A

$GPGSV,3,3,11,24,28,261,22,25,02,321,,28,14,139,21,,,,*42

$GLGSV,3,1,10,66,10,160,,65,33,111,,81,27,294,,78,50,252,*6E

$GLGSV,3,2,10,87,20,056,,77,21,194,,79,28,318,,88,47,001,*68

$GLGSV,3,3,10,87,20,055,,72,23,050,,,,,,,,,*68

$GPRMC,222003.000,A,3146.7650,N,09543.0218,W,0.7,83.4,250714,0.0,W*50

$GPGGA,222003.000,3146.76497,N,09543.02181,W,1,06,1.3,128.12,M,-24.0,M,,*52

$GNGSA,A,3,10,06,17,12,24,28,,,,,,,2.7,1.3,2.3*24

$GNGSA,A,3,,,,,,,,,,,,,2.7,1.3,2.3*2A

$GPGSV,3,1,11,02,65,258,14,04,30,044,,05,16,184,20,06,69,018,24*7C

$GPGSV,3,2,11,10,45,136,28,12,36,320,20,17,34,071,26,20,01,036,*76

$GPGSV,3,3,11,24,28,261,20,25,02,321,,28,14,140,23,,,,*4C

$GLGSV,3,1,10,66,10,160,,65,33,111,,81,27,294,,78,50,252,*6E

$GLGSV,3,2,10,87,20,056,,77,21,194,,79,28,318,,88,47,002,*6B

$GLGSV,3,3,10,87,20,056,,72,23,050,,,,,,,,,*6B

$GPRMC,222013.000,A,3146.7650,N,09543.0218,W,0.3,96.3,250714,0.0,W*56

$GPGGA,222013.000,3146.76497,N,09543.02181,W,1,08,1.0,128.12,M,-24.0,M,,*5E

$GNGSA,A,3,10,06,17,02,04,12,24,28,,,,,2.0,1.0,1.8*2E

$GNGSA,A,3,,,,,,,,,,,,,2.0,1.0,1.8*26

$GPGSV,3,1,11,02,65,259,22,04,30,044,19,05,16,184,20,06,69,018,26*72

$GPGSV,3,2,11,10,45,136,28,12,36,320,21,17,34,071,29,20,01,036,*78

$GPGSV,3,3,11,24,28,261,22,25,02,321,,28,14,140,25,,,,*48

$GLGSV,3,1,10,66,11,160,,65,33,111,,81,27,294,,78,50,252,*6F

$GLGSV,3,2,10,87,20,056,,77,21,194,,79,28,318,,88,47,002,*6B

$GLGSV,3,3,10,87,20,056,,72,23,050,,,,,,,,,*6B

$GPRMC,222023.000,A,3146.7649,N,09543.0222,W,0.4,189.3,250714,0.0,W*6C

$GPGGA,222023.000,3146.76493,N,09543.02216,W,1,08,1.0,128.13,M,-24.0,M,,*55

$GNGSA,A,3,10,06,17,02,04,12,24,28,,,,,2.0,1.0,1.8*2E

$GNGSA,A,3,,,,,,,,,,,,,2.0,1.0,1.8*26

$GPGSV,3,1,11,02,65,259,23,04,30,044,18,05,17,184,16,06,69,018,25*75

$GPGSV,3,2,11,10,45,136,19,12,36,320,20,17,34,071,27,20,01,036,*75

$GPGSV,3,3,11,24,28,261,22,25,02,321,,28,14,140,19,,,,*47

$GLGSV,3,1,10,66,11,160,,65,34,110,,81,27,294,,78,50,252,*69

$GLGSV,3,2,10,87,20,056,,77,21,194,,79,28,318,,88,47,002,*6B

$GLGSV,3,3,10,87,20,056,,72,23,050,,,,,,,,,*6B

$GPRMC,222033.000,A,3146.7645,N,09543.0226,W,0.4,167.3,250714,0.0,W*65

$GPGGA,222033.000,3146.76447,N,09543.02257,W,1,08,1.0,127.99,M,-24.0,M,,*55

$GNGSA,A,3,10,06,17,02,04,12,24,28,,,,,2.0,1.0,1.8*2E

$GNGSA,A,3,,,,,,,,,,,,,2.0,1.0,1.8*26

$GPGSV,3,1,11,02,65,259,24,04,30,044,23,05,17,184,15,06,69,018,26*7A

$GPGSV,3,2,11,10,45,135,27,12,37,320,23,17,34,071,28,20,01,036,*76

$GPGSV,3,3,11,24,28,261,24,25,02,321,,28,14,140,19,,,,*41

$GLGSV,3,1,10,66,11,160,,65,34,110,,81,27,295,,78,49,251,*63

$GLGSV,3,2,10,87,20,056,,77,21,194,,79,28,318,,88,47,002,*6B

$GLGSV,3,3,10,87,20,056,,72,23,050,,,,,,,,,*6B

$GPRMC,222043.000,A,3146.7645,N,09543.0226,W,0.3,185.3,250714,0.0,W*69

$GPGGA,222043.000,3146.76447,N,09543.02257,W,1,08,1.0,127.99,M,-24.0,M,,*52

$GNGSA,A,3,10,06,17,02,04,12,24,28,,,,,2.0,1.0,1.8*2E

$GNGSA,A,3,,,,,,,,,,,,,2.0,1.0,1.8*26

$GPGSV,3,1,11,02,65,259,24,04,30,044,24,05,17,184,16,06,69,018,25*7D

$GPGSV,3,2,11,10,45,135,27,12,37,320,24,17,33,071,29,20,01,036,*77

$GPGSV,3,3,11,24,28,261,23,25,02,321,,28,14,140,25,,,,*49

$GLGSV,3,1,10,66,11,160,,65,34,110,,81,27,295,,78,49,251,*63

$GLGSV,3,2,10,87,20,056,,77,21,194,,79,28,318,,88,47,002,*6B

$GLGSV,3,3,10,87,20,056,,72,23,050,,,,,,,,,*6B

$GPRMC,222053.000,A,3146.7645,N,09543.0226,W,0.2,0.0,250714,0.0,W*66

$GPGGA,222053.000,3146.76447,N,09543.02257,W,1,08,1.0,127.99,M,-24.0,M,,*53

$GNGSA,A,3,10,06,17,02,04,12,24,28,,,,,2.0,1.0,1.7*21

$GNGSA,A,3,,,,,,,,,,,,,2.0,1.0,1.7*29

$GPGSV,3,1,11,02,65,259,23,04,30,044,22,05,17,184,16,06,69,018,25*7C

$GPGSV,3,2,11,10,45,135,26,12,37,320,24,17,33,071,27,20,00,035,*7A

$GPGSV,3,3,11,24,28,261,22,25,02,321,,28,14,140,26,,,,*4B

$GLGSV,3,1,10,66,11,160,,65,34,110,,81,27,295,,78,49,251,*63

$GLGSV,3,2,10,87,20,056,,77,21,194,,79,29,318,,88,47,003,*6B

$GLGSV,3,3,10,87,20,056,,72,23,050,,,,,,,,,*6B

$GPRMC,222103.000,A,3146.7645,N,09543.0226,W,0.3,260.6,250714,0.0,W*61

$GPGGA,222103.000,3146.76447,N,09543.02257,W,1,07,1.2,127.99,M,-24.0,M,,*5A

$GNGSA,A,3,10,06,17,02,12,24,28,,,,,,2.2,1.2,1.9*2B

$GNGSA,A,3,,,,,,,,,,,,,2.2,1.2,1.9*27

$GPGSV,3,1,11,02,65,259,24,04,30,044,14,05,17,184,12,06,69,018,27*78

$GPGSV,3,2,11,10,45,135,28,12,37,320,25,17,33,071,30,20,00,035,*73

$GPGSV,3,3,11,24,28,261,20,25,03,321,,28,13,140,26,,,,*4F

$GLGSV,3,1,10,66,11,160,,65,34,110,,81,27,295,,78,49,251,*63

$GLGSV,3,2,10,87,20,056,,77,21,194,,79,29,318,,88,47,003,*6B

$GLGSV,3,3,10,87,20,056,,72,23,049,,,,,,,,,*63

$GPRMC,222114.000,A,3146.7646,N,09543.0231,W,0.1,0.0,250714,0.0,W*62

$GPGGA,222114.000,3146.76457,N,09543.02311,W,1,07,1.2,127.98,M,-24.0,M,,*5F

$GNGSA,A,3,10,06,17,02,12,24,28,,,,,,2.2,1.2,1.9*2B

$GNGSA,A,3,,,,,,,,,,,,,2.2,1.2,1.9*27

$GPGSV,3,1,11,02,65,259,27,04,30,044,13,05,17,184,08,06,69,018,30*71

$GPGSV,3,2,11,10,45,135,29,12,37,320,26,17,33,071,31,20,00,035,*70

$GPGSV,3,3,11,24,28,261,22,25,03,321,,28,13,140,22,,,,*49

$GLGSV,3,1,10,66,11,159,,65,34,110,,81,27,295,,78,49,251,16*6E

$GLGSV,3,2,10,87,20,056,,77,21,194,,79,29,318,,88,47,003,*6B

$GLGSV,3,3,10,87,20,056,,72,23,049,,,,,,,,,*63

$GPRMC,222124.000,A,3146.7646,N,09543.0231,W,0.3,44.9,250714,0.0,W*5A

$GPGGA,222124.000,3146.76457,N,09543.02311,W,1,08,1.0,127.98,M,-24.0,M,,*51

$GNGSA,A,3,10,06,17,02,04,12,24,28,,,,,2.0,1.0,1.7*21

$GNGSA,A,3,,,,,,,,,,,,,2.0,1.0,1.7*29

$GPGSV,3,1,11,02,65,260,27,04,29,044,22,05,17,184,,06,68,018,31*79

$GPGSV,3,2,11,10,45,135,29,12,37,320,26,17,33,071,31,20,00,035,*70

$GPGSV,3,3,11,24,28,261,24,25,03,321,,28,13,140,19,,,,*47

$GLGSV,3,1,10,66,11,159,,65,34,110,,81,27,295,,78,49,251,*69

$GLGSV,3,2,10,87,20,056,,77,21,194,,79,29,318,,88,47,003,*6B

$GLGSV,3,3,10,87,20,056,,72,23,049,,,,,,,,,*63

$GPRMC,222134.000,A,3146.7646,N,09543.0231,W,0.3,80.8,250714,0.0,W*52

$GPGGA,222134.000,3146.76457,N,09543.02311,W,1,08,1.0,127.98,M,-24.0,M,,*50

$GNGSA,A,3,10,06,17,02,04,12,24,28,,,,,2.0,1.0,1.7*21

$GNGSA,A,3,,,,,,,,,,,,,2.0,1.0,1.7*29

$GPGSV,3,1,11,02,65,260,26,04,29,044,27,05,17,184,,06,68,018,30*7C

$GPGSV,3,2,11,10,46,135,29,12,37,320,25,17,33,071,30,20,00,035,*71

$GPGSV,3,3,11,24,28,261,23,25,03,321,,28,13,140,17,,,,*4E

$GLGSV,3,1,10,66,11,159,,65,34,110,,81,27,295,,78,49,251,*69

$GLGSV,3,2,10,87,20,057,,77,21,194,,79,29,318,,88,47,003,*6A

$GLGSV,3,3,10,87,20,056,,72,23,049,,,,,,,,,*63

$GPRMC,222144.000,A,3146.7646,N,09543.0231,W,0.0,0.0,250714,0.0,W*66

$GPGGA,222144.000,3146.76457,N,09543.02311,W,1,08,1.0,127.98,M,-24.0,M,,*57

$GNGSA,A,3,10,06,17,02,04,12,24,28,,,,,2.0,1.0,1.7*21

$GNGSA,A,3,,,,,,,,,,,,,2.0,1.0,1.7*29

$GPGSV,3,1,11,02,65,260,25,04,29,044,28,05,17,184,,06,68,018,29*78

$GPGSV,3,2,11,10,46,135,28,12,37,320,26,17,33,071,29,20,00,035,*7B

$GPGSV,3,3,11,24,28,261,23,25,03,321,,28,13,140,19,,,,*40

$GLGSV,3,1,10,66,11,159,15,65,34,110,,81,27,295,,78,49,251,*6D

$GLGSV,3,2,10,87,20,057,,77,20,194,,79,29,317,,88,47,003,*64

$GLGSV,3,3,10,87,20,056,,72,23,049,,,,,,,,,*63

$GPRMC,222154.000,A,3146.7646,N,09543.0234,W,0.1,0.0,250714,0.0,W*63

$GPGGA,222154.000,3146.76458,N,09543.02342,W,1,08,1.0,128.18,M,-24.0,M,,*58

$GNGSA,A,3,10,06,17,02,04,12,24,28,,,,,2.0,1.0,1.7*21

$GNGSA,A,3,,,,,,,,,,,,,2.0,1.0,1.7*29

$GPGSV,3,1,11,02,65,260,27,04,29,044,29,05,17,184,,06,68,018,30*73

$GPGSV,3,2,11,10,46,135,29,12,37,320,28,17,33,072,30,20,00,035,*7F

$GPGSV,3,3,11,24,28,261,24,25,03,321,,28,13,140,22,,,,*4F

$GLGSV,3,1,10,66,11,159,,65,34,110,,81,27,295,,78,49,251,*69

$GLGSV,3,2,10,87,20,057,,77,20,194,,79,29,317,,88,47,003,*64

$GLGSV,3,3,10,87,20,057,,72,23,049,,,,,,,,,*62

$GPRMC,222205.000,A,3146.7646,N,09543.0234,W,0.2,0.0,250714,0.0,W*67

$GPGGA,222205.000,3146.76458,N,09543.02342,W,1,08,1.0,128.18,M,-24.0,M,,*5F

$GNGSA,A,3,10,06,17,02,04,12,24,28,,,,,2.0,1.0,1.7*21

$GNGSA,A,3,,,,,,,,,,,,,2.0,1.0,1.7*29

$GPGSV,3,1,11,02,65,260,27,04,29,044,27,05,17,184,,06,68,018,29*75

$GPGSV,3,2,11,10,46,135,27,12,37,320,26,17,33,072,28,20,00,035,*76

$GPGSV,3,3,11,24,28,260,23,25,03,321,,28,13,140,22,,,,*49

$GLGSV,3,1,10,66,12,159,,65,34,110,,81,27,295,,78,49,251,*6A

$GLGSV,3,2,10,87,20,057,,77,20,194,,79,29,317,,88,47,003,*64

$GLGSV,3,3,10,87,20,057,,72,23,049,,,,,,,,,*62

$GPRMC,222215.000,A,3146.7646,N,09543.0234,W,0.1,0.0,250714,0.0,W*65

$GPGGA,222215.000,3146.76458,N,09543.02342,W,1,08,1.0,128.18,M,-24.0,M,,*5E

$GNGSA,A,3,10,06,17,02,04,12,24,28,,,,,2.0,1.0,1.7*21

$GNGSA,A,3,,,,,,,,,,,,,2.0,1.0,1.7*29

$GPGSV,3,1,11,02,65,260,28,04,29,044,27,05,17,184,,06,68,018,31*73

$GPGSV,3,2,11,10,46,135,29,12,37,320,28,17,33,072,30,20,00,035,*7F

$GPGSV,3,3,11,24,28,260,24,25,03,321,,28,13,140,22,,,,*4E

$GLGSV,3,1,10,66,12,159,,65,34,109,,81,27,295,,78,49,251,*62

$GLGSV,3,2,10,87,20,057,,77,20,194,,79,29,317,,88,47,003,*64

$GLGSV,3,3,10,87,20,057,,72,23,049,,,,,,,,,*62

$GPRMC,222225.000,A,3146.7646,N,09543.0234,W,0.1,0.0,250714,0.0,W*66

$GPGGA,222225.000,3146.76458,N,09543.02342,W,1,08,1.0,128.18,M,-24.0,M,,*5D

$GNGSA,A,3,10,06,17,02,04,12,24,28,,,,,2.0,1.0,1.7*21

$GNGSA,A,3,,,,,,,,,,,,,2.0,1.0,1.7*29

$GPGSV,3,1,11,02,66,261,26,04,29,044,24,05,17,184,,06,68,018,31*7C

$GPGSV,3,2,11,10,46,135,30,12,37,320,28,17,33,072,30,20,00,035,*77

$GPGSV,3,3,11,24,28,260,25,25,03,321,,28,13,140,22,,,,*4F

$GLGSV,3,1,10,66,12,159,,65,34,109,,81,27,296,,78,49,251,*61

$GLGSV,3,2,10,87,20,057,,77,20,194,,79,29,317,,88,47,003,*64

$GLGSV,3,3,10,87,20,057,,72,23,049,,,,,,,,,*62

$GPRMC,222235.000,A,3146.7646,N,09543.0239,W,0.1,0.0,250714,0.0,W*6A

$GPGGA,222235.000,3146.76459,N,09543.02386,W,1,08,1.0,127.89,M,-24.0,M,,*52

$GNGSA,A,3,10,06,17,02,04,12,24,28,,,,,2.0,1.0,1.7*21

$GNGSA,A,3,,,,,,,,,,,,,2.0,1.0,1.7*29

$GPGSV,3,1,11,02,66,261,28,04,29,044,27,05,17,184,,06,68,019,33*72

$GPGSV,3,2,11,10,46,135,33,12,37,320,30,17,33,072,32,20,00,035,*7F

$GPGSV,3,3,11,24,28,260,27,25,03,321,,28,13,140,29,,,,*46

$GLGSV,3,1,10,66,12,159,,65,34,109,,81,27,296,,78,49,250,*60

$GLGSV,3,2,10,87,19,057,,77,20,194,,79,29,317,,88,47,003,*6E

$GLGSV,3,3,10,87,20,057,,72,23,049,,,,,,,,,*62

$GPRMC,222245.000,A,3146.7646,N,09543.0239,W,0.1,0.0,250714,0.0,W*6D

$GPGGA,222245.000,3146.76459,N,09543.02386,W,1,08,1.0,127.89,M,-24.0,M,,*55

$GNGSA,A,3,10,06,17,02,04,12,24,28,,,,,2.0,1.0,1.7*21

$GNGSA,A,3,,,,,,,,,,,,,2.0,1.0,1.7*29

$GPGSV,3,1,11,02,66,261,28,04,29,044,28,05,17,184,,06,68,019,33*7D

$GPGSV,3,2,11,10,46,134,33,12,38,320,30,17,33,072,33,20,00,035,*70

$GPGSV,3,3,11,24,28,260,27,25,03,321,,28,13,140,30,,,,*4E

$GLGSV,3,1,10,66,12,159,,65,34,109,,81,27,296,,78,49,250,*60

$GLGSV,3,2,10,87,19,057,,77,20,194,,79,29,317,,88,46,004,*68

$GLGSV,3,3,10,87,20,057,,72,23,049,,,,,,,,,*62

$GPRMC,222255.000,A,3146.7646,N,09543.0239,W,0.1,0.0,250714,0.0,W*6C

$GPGGA,222255.000,3146.76459,N,09543.02386,W,1,08,1.0,127.89,M,-24.0,M,,*54

$GNGSA,A,3,10,06,17,02,04,12,24,28,,,,,2.0,1.0,1.7*21

$GNGSA,A,3,,,,,,,,,,,,,2.0,1.0,1.7*29

$GPGSV,3,1,11,02,66,261,25,04,29,044,27,05,17,184,,06,68,019,31*7D

$GPGSV,3,2,11,10,46,134,31,12,38,320,27,17,33,072,29,20,00,035,*7F

$GPGSV,3,3,11,24,28,260,24,25,03,321,,28,13,140,30,,,,*4D

$GLGSV,3,1,10,66,12,159,,65,34,109,,81,27,296,,78,49,250,*60

$GLGSV,3,2,10,87,19,057,,77,20,194,,79,29,317,,88,46,004,*68

$GLGSV,3,3,10,87,19,057,,72,22,048,,,,,,,,,*68

$GPRMC,222305.000,A,3146.7646,N,09543.0239,W,0.2,64.1,250714,0.0,W*58

$GPGGA,222305.000,3146.76459,N,09543.02386,W,1,08,1.0,127.89,M,-24.0,M,,*50

$GNGSA,A,3,10,06,17,02,04,12,24,28,,,,,2.0,1.0,1.7*21

$GNGSA,A,3,,,,,,,,,,,,,2.0,1.0,1.7*29

$GPGSV,3,1,11,02,66,261,22,04,29,044,24,05,17,184,,06,68,019,27*7E

$GPGSV,3,2,11,10,46,134,29,12,38,320,24,17,33,072,26,20,00,035,*7A

$GPGSV,3,3,11,24,28,260,23,25,03,321,,28,13,140,27,,,,*4C

$GLGSV,3,1,10,66,12,159,,65,34,109,,81,27,296,,78,49,250,*60

$GLGSV,3,2,10,87,19,057,,77,20,194,,79,29,317,,88,46,004,*68

$GLGSV,3,3,10,87,19,057,,72,22,048,,,,,,,,,*68

$GPRMC,222315.000,A,3146.7643,N,09543.0237,W,0.4,110.1,250714,0.0,W*66

$GPGGA,222315.000,3146.76427,N,09543.02375,W,1,08,1.0,128.06,M,-24.0,M,,*5C

$GNGSA,A,3,10,06,17,02,04,12,24,28,,,,,2.0,1.0,1.7*21

$GNGSA,A,3,,,,,,,,,,,,,2.0,1.0,1.7*29

$GPGSV,3,1,11,02,66,261,20,04,29,044,21,05,17,184,,06,68,019,25*7B

$GPGSV,3,2,11,10,46,134,28,12,38,320,23,17,33,072,24,20,00,035,*7E

$GPGSV,3,3,11,24,28,260,20,25,04,321,,28,12,140,27,,,,*49

$GLGSV,3,1,10,66,12,159,,65,35,109,,81,27,296,,78,49,250,*61

$GLGSV,3,2,10,87,19,057,,77,20,194,,79,29,317,,88,46,004,*68

$GLGSV,3,3,10,87,19,057,,72,22,048,,,,,,,,,*68

$GPRMC,222325.000,A,3146.7643,N,09543.0237,W,0.2,271.1,250714,0.0,W*67

$GPGGA,222325.000,3146.76427,N,09543.02375,W,1,08,1.0,128.06,M,-24.0,M,,*5F

$GNGSA,A,3,10,06,17,02,04,12,24,28,,,,,2.0,1.0,1.7*21

$GNGSA,A,3,,,,,,,,,,,,,2.0,1.0,1.7*29

$GPGSV,3,1,11,02,66,262,22,04,29,044,18,05,17,184,,06,68,019,25*70

$GPGSV,3,2,11,10,46,134,30,12,38,320,24,17,33,072,24,20,00,035,*70

$GPGSV,3,3,11,24,28,260,20,25,04,321,,28,12,140,30,,,,*4F

$GLGSV,3,1,10,66,12,159,,65,35,109,,81,27,296,,78,48,249,*68

$GLGSV,3,2,10,87,19,057,,77,20,194,,79,29,317,,88,46,004,*68

$GLGSV,3,3,10,87,19,057,,72,22,048,,,,,,,,,*68

$GPRMC,222336.000,A,3146.7643,N,09543.0237,W,0.3,309.6,250714,0.0,W*6D

$GPGGA,222336.000,3146.76427,N,09543.02375,W,1,07,1.2,128.06,M,-24.0,M,,*50

$GNGSA,A,3,10,06,17,02,12,24,28,,,,,,2.2,1.2,1.9*2B

$GNGSA,A,3,,,,,,,,,,,,,2.2,1.2,1.9*27

$GPGSV,3,1,11,02,66,262,22,04,29,045,14,05,18,184,,06,67,019,26*7E

$GPGSV,3,2,11,10,46,134,29,12,38,320,26,17,33,072,24,20,00,035,*7A

$GPGSV,3,3,11,24,28,260,18,25,04,321,,28,12,140,29,,,,*4C

$GLGSV,3,1,10,66,12,159,,65,35,109,,81,27,296,,78,48,249,*68

$GLGSV,3,2,10,87,19,057,,77,19,194,,79,29,317,,88,46,004,*62

$GLGSV,3,3,10,87,19,057,,72,22,048,,,,,,,,,*68

$GPRMC,222346.000,A,3146.7643,N,09543.0237,W,0.8,45.0,250714,0.0,W*5C

$GPGGA,222346.000,3146.76427,N,09543.02375,W,1,08,1.0,128.06,M,-24.0,M,,*5A

$GNGSA,A,3,10,06,17,02,04,12,24,28,,,,,2.0,1.0,1.7*21

$GNGSA,A,3,,,,,,,,,,,,,2.0,1.0,1.7*29

$GPGSV,3,1,11,02,66,262,23,04,29,045,18,05,18,184,,06,67,019,28*7D

$GPGSV,3,2,11,10,46,133,29,12,38,320,28,17,33,072,24,20,00,035,*73

$GPGSV,3,3,11,24,28,260,15,25,04,321,,28,12,140,24,,,,*4C

$GLGSV,3,1,10,66,12,159,,65,35,109,,81,27,296,,78,48,249,*68

$GLGSV,3,2,10,87,19,057,,77,19,194,,79,29,316,,88,46,005,*62

$GLGSV,3,3,10,87,19,058,,72,22,048,,,,,,,,,*67

$GPRMC,222356.000,A,3146.7645,N,09543.0240,W,0.3,75.8,250714,0.0,W*5B

$GPGGA,222356.000,3146.76448,N,09543.02396,W,1,07,1.2,128.07,M,-24.0,M,,*53

$GNGSA,A,3,10,06,17,02,04,12,28,,,,,,2.3,1.2,2.0*22

$GNGSA,A,3,,,,,,,,,,,,,2.3,1.2,2.0*2C

$GPGSV,3,1,11,02,66,262,20,04,29,045,19,05,18,184,,06,67,019,25*72

$GPGSV,3,2,11,10,46,133,25,12,38,320,25,17,33,073,19,20,00,035,*7D

$GPGSV,3,3,11,24,28,260,10,25,04,321,,28,12,140,22,,,,*4F

